i,time,message
0,1617296281.3317842,$GPGGA,172536.95,5522.10780126,N,01025.89977021,E,4,14,1.0,22.780,M,39.413,M,0.9,0028*7D
1,1617296281.5954018,$GPGGA,172537.20,5522.10781322,N,01025.90011010,E,4,14,1.0,22.715,M,39.413,M,1.2,0028*70
2,1617296281.8667564,$GPGGA,172537.40,5522.10783173,N,01025.90035161,E,4,14,1.0,22.773,M,39.413,M,1.4,0028*75
3,1617296282.132946,$GPGGA,172537.85,5522.10787426,N,01025.90092611,E,4,14,1.0,22.772,M,39.413,M,1.9,0028*7C
4,1617296282.400876,$GPGGA,172538.05,5522.10788243,N,01025.90115488,E,4,14,1.0,22.788,M,39.413,M,2.0,0028*72
5,1617296282.6703613,$GPGGA,172538.30,5522.10790595,N,01025.90143634,E,4,13,1.1,22.816,M,39.413,M,1.3,0028*79
6,1617296282.938633,$GPGGA,172538.50,5522.10792423,N,01025.90166487,E,4,13,1.1,22.858,M,39.413,M,1.5,0028*70
7,1617296283.2071805,$GPGGA,172538.75,5522.10794364,N,01025.90195586,E,4,13,1.1,22.842,M,39.413,M,1.8,0028*7F
8,1617296283.482843,$GPGGA,172539.00,5522.10794290,N,01025.90226854,E,4,17,0.7,22.797,M,39.413,M,1.0,0028*73
9,1617296283.7736228,$GPGGA,172539.50,5522.10795688,N,01025.90288590,E,4,17,0.7,22.813,M,39.413,M,1.5,0028*7D
10,1617296284.0646095,$GPGGA,172539.75,5522.10797370,N,01025.90319869,E,4,17,0.7,22.841,M,39.413,M,0.8,0028*73
11,1617296284.3339617,$GPGGA,172539.95,5522.10797997,N,01025.90345670,E,4,17,0.7,22.805,M,39.413,M,0.9,0028*70
12,1617296284.6020725,$GPGGA,172540.15,5522.10799707,N,01025.90371603,E,4,17,0.7,22.850,M,39.413,M,1.1,0028*75
13,1617296284.8941739,$GPGGA,172540.60,5522.10802236,N,01025.90426753,E,4,17,0.7,22.839,M,39.413,M,1.6,0028*74
14,1617296285.1763446,$GPGGA,172540.80,5522.10805604,N,01025.90450817,E,4,17,0.7,22.867,M,39.413,M,1.8,0028*73
15,1617296285.4451785,$GPGGA,172541.00,5522.10808639,N,01025.90474843,E,4,17,0.7,22.819,M,39.413,M,1.0,0028*7F
16,1617296285.714445,$GPGGA,172541.45,5522.10816836,N,01025.90528772,E,4,17,0.7,22.867,M,39.413,M,1.5,0028*79
17,1617296285.9894762,$GPGGA,172541.70,5522.10820048,N,01025.90558895,E,4,16,0.7,22.837,M,39.413,M,0.7,0028*7D
18,1617296286.2570252,$GPGGA,172541.90,5522.10824514,N,01025.90582375,E,4,16,0.7,22.867,M,39.413,M,0.9,0028*72
19,1617296286.525757,$GPGGA,172542.15,5522.10830464,N,01025.90612970,E,4,16,0.7,22.849,M,39.413,M,1.1,0028*7F
20,1617296286.7992716,$GPGGA,172542.35,5522.10835250,N,01025.90637338,E,4,16,0.7,22.841,M,39.413,M,1.4,0028*75
21,1617296287.0674338,$GPGGA,172542.60,5522.10842444,N,01025.90667671,E,4,16,0.7,22.856,M,39.413,M,1.6,0028*7F
22,1617296287.335919,$GPGGA,172543.00,5522.10854259,N,01025.90716831,E,4,16,0.7,22.870,M,39.413,M,2.0,0028*79
23,1617296287.603062,$GPGGA,172543.25,5522.10861555,N,01025.90747374,E,4,17,0.7,22.856,M,39.413,M,1.3,0028*78
24,1617296287.8709972,$GPGGA,172543.50,5522.10868751,N,01025.90778039,E,4,17,0.7,22.881,M,39.413,M,1.5,0028*7F
25,1617296288.1399171,$GPGGA,172543.75,5522.10874331,N,01025.90808635,E,4,17,0.7,22.870,M,39.413,M,1.8,0028*76
26,1617296288.4085226,$GPGGA,172544.00,5522.10880775,N,01025.90840931,E,4,17,0.7,22.874,M,39.413,M,1.0,0028*77
27,1617296288.678099,$GPGGA,172544.25,5522.10887039,N,01025.90871209,E,4,17,0.7,22.888,M,39.413,M,1.3,0028*7A
28,1617296288.9459174,$GPGGA,172544.45,5522.10892309,N,01025.90896666,E,4,17,0.7,22.866,M,39.413,M,1.5,0028*7A
29,1617296289.2142894,$GPGGA,172544.70,5522.10898259,N,01025.90927946,E,4,17,0.7,22.899,M,39.413,M,1.7,0028*76
30,1617296289.482988,$GPGGA,172545.20,5522.10910630,N,01025.90990925,E,4,17,0.7,22.870,M,39.413,M,1.2,0028*73
31,1617296289.7505124,$GPGGA,172545.40,5522.10915457,N,01025.91015419,E,4,17,0.7,22.853,M,39.413,M,1.4,0028*73
32,1617296290.0185165,$GPGGA,172545.65,5522.10922099,N,01025.91047696,E,4,17,0.7,22.855,M,39.413,M,1.6,0028*70
33,1617296290.2938175,$GPGGA,172545.85,5522.10926375,N,01025.91073335,E,4,17,0.7,22.895,M,39.413,M,0.9,0028*72
34,1617296290.5628805,$GPGGA,172546.10,5522.10932873,N,01025.91104894,E,4,17,0.7,22.842,M,39.413,M,1.1,0028*77
35,1617296290.83347,$GPGGA,172546.50,5522.10943882,N,01025.91153989,E,4,17,0.7,22.855,M,39.413,M,1.5,0028*76
36,1617296291.1032262,$GPGGA,172546.75,5522.10950444,N,01025.91185753,E,4,17,0.7,22.863,M,39.413,M,1.8,0028*7F
37,1617296291.3713827,$GPGGA,172547.00,5522.10956970,N,01025.91215201,E,4,17,0.7,22.865,M,39.413,M,2.0,0028*75
38,1617296291.6402078,$GPGGA,172547.25,5522.10962988,N,01025.91247306,E,4,18,0.7,22.861,M,39.413,M,1.3,0028*78
39,1617296291.9085383,$GPGGA,172547.50,5522.10969155,N,01025.91277489,E,4,18,0.7,22.873,M,39.413,M,1.5,0028*7F
40,1617296292.176637,$GPGGA,172547.75,5522.10975173,N,01025.91308703,E,4,18,0.7,22.850,M,39.413,M,1.8,0028*75
41,1617296292.444723,$GPGGA,172547.95,5522.10978638,N,01025.91333162,E,4,18,0.7,22.878,M,39.413,M,2.0,0028*76
42,1617296292.7138312,$GPGGA,172548.40,5522.10987529,N,01025.91388579,E,4,18,0.7,22.869,M,39.413,M,1.4,0028*7B
43,1617296292.9819508,$GPGGA,172548.65,5522.10991670,N,01025.91417967,E,4,18,0.7,22.868,M,39.413,M,1.6,0028*75
44,1617296293.251064,$GPGGA,172548.85,5522.10994768,N,01025.91441871,E,4,18,0.7,22.852,M,39.413,M,0.9,0028*74
45,1617296293.519291,$GPGGA,172549.10,5522.10998675,N,01025.91471687,E,4,18,0.7,22.894,M,39.413,M,1.1,0028*7F
46,1617296293.7872612,$GPGGA,172549.50,5522.11004051,N,01025.91519120,E,4,18,0.7,22.873,M,39.413,M,1.5,0028*7E
47,1617296294.0557497,$GPGGA,172549.75,5522.11008034,N,01025.91547917,E,4,18,0.7,22.866,M,39.413,M,1.8,0028*78
48,1617296294.3233502,$GPGGA,172550.00,5522.11012542,N,01025.91578126,E,4,18,0.7,22.864,M,39.413,M,2.0,0028*72
49,1617296294.5910804,$GPGGA,172550.25,5522.11015944,N,01025.91606645,E,4,18,0.7,22.886,M,39.413,M,1.3,0028*7C
50,1617296294.859809,$GPGGA,172550.50,5522.11018701,N,01025.91636273,E,4,18,0.7,22.826,M,39.413,M,1.5,0028*72
51,1617296295.1276546,$GPGGA,172550.75,5522.11022847,N,01025.91666238,E,4,18,0.7,22.863,M,39.413,M,1.8,0028*77
52,1617296295.404237,$GPGGA,172550.95,5522.11025870,N,01025.91690957,E,4,18,0.7,22.832,M,39.413,M,0.9,0028*75
53,1617296295.673291,$GPGGA,172551.20,5522.11029800,N,01025.91722400,E,4,18,0.7,22.851,M,39.413,M,1.2,0028*79
54,1617296295.9403837,$GPGGA,172551.65,5522.11035449,N,01025.91778291,E,4,18,0.7,22.858,M,39.413,M,0.6,0028*79
55,1617296296.2081478,$GPGGA,172551.85,5522.11037966,N,01025.91802822,E,4,18,0.7,22.870,M,39.413,M,0.9,0028*70
56,1617296296.476237,$GPGGA,172552.10,5522.11041861,N,01025.91834931,E,4,18,0.7,22.852,M,39.413,M,1.1,0028*77
57,1617296296.7440276,$GPGGA,172552.30,5522.11045024,N,01025.91860591,E,4,18,0.7,22.877,M,39.413,M,1.3,0028*7A
58,1617296297.0127907,$GPGGA,172552.50,5522.11047236,N,01025.91884624,E,4,18,0.7,22.889,M,39.413,M,1.5,0028*7F
59,1617296297.2808478,$GPGGA,172552.95,5522.11053288,N,01025.91940700,E,4,18,0.7,22.899,M,39.413,M,2.0,0028*7F
60,1617296297.5486782,$GPGGA,172553.15,5522.11056280,N,01025.91964602,E,4,18,0.7,22.876,M,39.413,M,2.2,0028*7D
61,1617296297.8173885,$GPGGA,172553.40,5522.11061225,N,01025.91995628,E,4,18,0.7,22.895,M,39.413,M,1.4,0028*78
62,1617296298.0860949,$GPGGA,172553.65,5522.11064813,N,01025.92024413,E,4,18,0.7,22.888,M,39.413,M,1.6,0028*71
63,1617296298.3532207,$GPGGA,172553.85,5522.11067973,N,01025.92049249,E,4,18,0.7,22.890,M,39.413,M,1.9,0028*7F
64,1617296298.6218984,$GPGGA,172554.30,5522.11076048,N,01025.92104761,E,4,18,0.7,22.887,M,39.413,M,1.3,0028*7C
65,1617296298.8892617,$GPGGA,172554.50,5522.11080625,N,01025.92129878,E,4,18,0.7,22.909,M,39.413,M,1.5,0028*77
66,1617296299.1585302,$GPGGA,172554.75,5522.11084966,N,01025.92159201,E,4,18,0.7,22.915,M,39.413,M,0.8,0028*7E
67,1617296299.4268293,$GPGGA,172555.00,5522.11089167,N,01025.92191189,E,4,18,0.7,22.902,M,39.413,M,1.0,0028*71
68,1617296299.69526,$GPGGA,172555.25,5522.11093401,N,01025.92220586,E,4,18,0.7,22.956,M,39.413,M,1.3,0028*78
69,1617296299.9652233,$GPGGA,172555.45,5522.11096321,N,01025.92246445,E,4,18,0.7,22.906,M,39.413,M,1.5,0028*73
70,1617296300.2334597,$GPGGA,172555.90,5522.11102856,N,01025.92301210,E,4,18,0.7,22.918,M,39.413,M,1.9,0028*7B
71,1617296300.5017357,$GPGGA,172556.15,5522.11105904,N,01025.92334148,E,4,18,0.7,22.906,M,39.413,M,1.1,0028*7B
72,1617296300.7714002,$GPGGA,172556.40,5522.11109486,N,01025.92365743,E,4,18,0.7,22.934,M,39.413,M,1.4,0028*7D
73,1617296301.039435,$GPGGA,172556.65,5522.11112620,N,01025.92398401,E,4,18,0.7,22.912,M,39.413,M,1.6,0028*7F
74,1617296301.308021,$GPGGA,172556.85,5522.11113701,N,01025.92424365,E,4,18,0.7,22.906,M,39.413,M,0.9,0028*7C
75,1617296301.5767293,$GPGGA,172557.10,5522.11115809,N,01025.92456740,E,4,18,0.7,22.880,M,39.413,M,1.1,0028*70
76,1617296301.8446336,$GPGGA,172557.35,5522.11117617,N,01025.92489817,E,4,18,0.7,22.918,M,39.413,M,1.4,0028*7E
77,1617296302.112721,$GPGGA,172557.80,5522.11122574,N,01025.92548202,E,4,18,0.7,22.896,M,39.413,M,1.8,0028*79
78,1617296302.381854,$GPGGA,172558.00,5522.11124344,N,01025.92573024,E,4,18,0.7,22.899,M,39.413,M,2.0,0028*77
79,1617296302.650564,$GPGGA,172558.25,5522.11127263,N,01025.92605747,E,4,18,0.7,22.893,M,39.413,M,1.3,0028*7D
80,1617296302.9187224,$GPGGA,172558.50,5522.11130456,N,01025.92638524,E,4,18,0.7,22.924,M,39.413,M,1.5,0028*7B
81,1617296303.1873784,$GPGGA,172558.75,5522.11133225,N,01025.92671582,E,4,18,0.7,22.894,M,39.413,M,1.8,0028*7B
82,1617296303.454804,$GPGGA,172559.00,5522.11135947,N,01025.92705048,E,4,18,0.7,22.939,M,39.413,M,1.0,0028*7E
83,1617296303.7234342,$GPGGA,172559.25,5522.11137796,N,01025.92737629,E,4,18,0.7,22.894,M,39.413,M,1.3,0028*7C
84,1617296303.9913335,$GPGGA,172559.50,5522.11140858,N,01025.92772178,E,4,18,0.7,22.917,M,39.413,M,1.5,0028*7D
85,1617296304.2595525,$GPGGA,172559.95,5522.11146779,N,01025.92831674,E,4,18,0.7,22.905,M,39.413,M,2.0,0028*78
86,1617296304.5285223,$GPGGA,172600.20,5522.11149133,N,01025.92864659,E,4,18,0.7,22.929,M,39.413,M,2.2,0028*7D
87,1617296304.7970767,$GPGGA,172600.45,5522.11150892,N,01025.92898089,E,4,17,0.7,22.908,M,39.413,M,1.5,0028*74
88,1617296305.0661194,$GPGGA,172600.65,5522.11153237,N,01025.92924851,E,4,17,0.7,22.942,M,39.413,M,1.6,0028*76
89,1617296305.335353,$GPGGA,172600.90,5522.11155766,N,01025.92958239,E,4,17,0.7,22.902,M,39.413,M,1.9,0028*7F
90,1617296305.6156597,$GPGGA,172601.15,5522.11159237,N,01025.92991700,E,4,17,0.7,22.899,M,39.413,M,1.1,0028*7F
91,1617296305.8833203,$GPGGA,172601.60,5522.11163034,N,01025.93052036,E,4,17,0.7,22.876,M,39.413,M,1.6,0028*76
92,1617296306.1527748,$GPGGA,172601.80,5522.11165491,N,01025.93078176,E,4,17,0.7,22.900,M,39.413,M,1.8,0028*76
93,1617296306.4212859,$GPGGA,172602.00,5522.11167037,N,01025.93104632,E,4,17,0.7,22.878,M,39.413,M,1.0,0028*7C
94,1617296306.6909363,$GPGGA,172602.25,5522.11169696,N,01025.93137531,E,4,17,0.7,22.915,M,39.413,M,1.3,0028*71
95,1617296306.9608934,$GPGGA,172602.50,5522.11171555,N,01025.93170325,E,4,17,0.7,22.882,M,39.413,M,1.5,0028*7F
96,1617296307.2288623,$GPGGA,172602.95,5522.11173676,N,01025.93230158,E,4,17,0.7,22.904,M,39.413,M,2.0,0028*70
97,1617296307.497858,$GPGGA,172603.15,5522.11174849,N,01025.93256954,E,4,17,0.7,22.865,M,39.413,M,2.2,0028*7C
98,1617296307.7672687,$GPGGA,172603.35,5522.11175677,N,01025.93282892,E,4,17,0.7,22.911,M,39.413,M,1.4,0028*79
99,1617296308.034895,$GPGGA,172603.60,5522.11176568,N,01025.93315603,E,4,17,0.7,22.886,M,39.413,M,1.6,0028*73
100,1617296308.30327,$GPGGA,172604.00,5522.11177750,N,01025.93366268,E,4,17,0.7,22.906,M,39.413,M,1.0,0028*78
101,1617296308.571525,$GPGGA,172604.30,5522.11179992,N,01025.93405730,E,4,17,0.7,22.884,M,39.413,M,1.3,0028*77
102,1617296308.8384128,$GPGGA,172604.50,5522.11181716,N,01025.93431566,E,4,17,0.7,22.910,M,39.413,M,1.5,0028*78
103,1617296309.1069546,$GPGGA,172604.75,5522.11182833,N,01025.93462697,E,4,17,0.7,22.897,M,39.413,M,1.8,0028*7C
104,1617296309.375332,$GPGGA,172605.00,5522.11182957,N,01025.93495080,E,4,17,0.7,22.924,M,39.413,M,1.0,0028*75
105,1617296309.642443,$GPGGA,172605.25,5522.11183747,N,01025.93525610,E,4,17,0.7,22.918,M,39.413,M,1.3,0028*75
106,1617296309.9114466,$GPGGA,172605.45,5522.11184922,N,01025.93551464,E,4,17,0.7,22.921,M,39.413,M,1.5,0028*77
107,1617296310.1794324,$GPGGA,172605.90,5522.11184636,N,01025.93606904,E,4,17,0.7,22.922,M,39.413,M,1.9,0028*70
108,1617296310.4487548,$GPGGA,172606.15,5522.11183964,N,01025.93637824,E,4,17,0.7,22.962,M,39.413,M,2.2,0028*7C
109,1617296310.721809,$GPGGA,172606.40,5522.11183168,N,01025.93668240,E,4,17,0.7,22.918,M,39.413,M,1.4,0028*72
110,1617296310.990035,$GPGGA,172606.65,5522.11182498,N,01025.93700063,E,4,17,0.7,22.968,M,39.413,M,1.6,0028*77
111,1617296311.2585528,$GPGGA,172606.85,5522.11180674,N,01025.93724497,E,4,17,0.7,22.956,M,39.413,M,1.9,0028*70
112,1617296311.5273077,$GPGGA,172607.10,5522.11178893,N,01025.93757123,E,4,17,0.7,22.971,M,39.413,M,2.1,0028*7D
113,1617296311.7948365,$GPGGA,172607.35,5522.11176177,N,01025.93789007,E,4,17,0.7,22.948,M,39.413,M,1.4,0028*7F
114,1617296312.0631628,$GPGGA,172607.60,5522.11173480,N,01025.93820753,E,4,17,0.7,22.927,M,39.413,M,1.6,0028*76
115,1617296312.3314826,$GPGGA,172608.00,5522.11167396,N,01025.93872520,E,4,17,0.7,22.937,M,39.413,M,2.0,0028*7F
116,1617296312.599375,$GPGGA,172608.25,5522.11163640,N,01025.93904872,E,4,17,0.7,22.933,M,39.413,M,2.3,0028*7F
117,1617296312.868462,$GPGGA,172608.45,5522.11160620,N,01025.93929895,E,4,17,0.7,22.941,M,39.413,M,1.5,0028*7A
118,1617296313.1364367,$GPGGA,172608.70,5522.11156410,N,01025.93962749,E,4,17,0.7,22.869,M,39.413,M,1.7,0028*70
119,1617296313.4036834,$GPGGA,172608.95,5522.11152230,N,01025.93995693,E,4,17,0.7,22.940,M,39.413,M,2.0,0028*7B
120,1617296313.6735363,$GPGGA,172609.40,5522.11142875,N,01025.94057952,E,4,17,0.7,22.897,M,39.413,M,1.4,0028*76
121,1617296313.9416735,$GPGGA,172609.65,5522.11138011,N,01025.94089686,E,4,17,0.7,22.878,M,39.413,M,1.6,0028*70
122,1617296314.2101243,$GPGGA,172609.85,5522.11134685,N,01025.94116162,E,4,17,0.7,22.900,M,39.413,M,1.9,0028*72
123,1617296314.4785962,$GPGGA,172610.10,5522.11129478,N,01025.94147215,E,4,17,0.7,22.923,M,39.413,M,2.1,0028*77
124,1617296314.7459033,$GPGGA,172610.35,5522.11125916,N,01025.94181030,E,4,17,0.7,22.912,M,39.413,M,1.4,0028*72
125,1617296315.0229595,$GPGGA,172610.60,5522.11122213,N,01025.94213332,E,4,17,0.7,22.919,M,39.413,M,1.6,0028*7B
126,1617296315.2919943,$GPGGA,172610.85,5522.11118781,N,01025.94245860,E,4,17,0.7,22.860,M,39.413,M,0.9,0028*79
127,1617296315.5591362,$GPGGA,172611.10,5522.11115352,N,01025.94279181,E,4,17,0.7,22.905,M,39.413,M,1.1,0028*71
128,1617296315.8332276,$GPGGA,172611.50,5522.11109464,N,01025.94331217,E,4,17,0.7,22.863,M,39.413,M,1.5,0028*7E
129,1617296316.102763,$GPGGA,172611.75,5522.11106376,N,01025.94364029,E,4,17,0.7,22.897,M,39.413,M,1.8,0028*7B
130,1617296316.371825,$GPGGA,172611.95,5522.11103804,N,01025.94390685,E,4,17,0.7,22.872,M,39.413,M,2.0,0028*75
131,1617296316.641289,$GPGGA,172612.15,5522.11101700,N,01025.94416769,E,4,17,0.7,22.902,M,39.413,M,1.1,0028*79
132,1617296316.9095867,$GPGGA,172612.60,5522.11095063,N,01025.94475163,E,4,17,0.7,22.886,M,39.413,M,1.6,0028*76
133,1617296317.1771383,$GPGGA,172612.85,5522.11092525,N,01025.94506340,E,4,17,0.7,22.878,M,39.413,M,0.9,0028*74
134,1617296317.4450023,$GPGGA,172613.10,5522.11088189,N,01025.94539679,E,4,17,0.7,22.862,M,39.413,M,1.1,0028*71
135,1617296317.7142615,$GPGGA,172613.30,5522.11084982,N,01025.94565735,E,4,17,0.7,22.899,M,39.413,M,1.3,0028*7A
136,1617296317.9821877,$GPGGA,172613.50,5522.11081908,N,01025.94591618,E,4,17,0.7,22.872,M,39.413,M,1.5,0028*7D
137,1617296318.250629,$GPGGA,172613.95,5522.11074989,N,01025.94649578,E,4,17,0.7,22.885,M,39.413,M,2.0,0028*7A
138,1617296318.5187166,$GPGGA,172614.15,5522.11072095,N,01025.94674893,E,4,16,0.7,22.863,M,39.413,M,1.1,0028*7A
139,1617296318.7868772,$GPGGA,172614.40,5522.11068542,N,01025.94705748,E,4,16,0.7,22.892,M,39.413,M,1.4,0028*7B
140,1617296319.0557144,$GPGGA,172614.65,5522.11065021,N,01025.94737137,E,4,16,0.7,22.858,M,39.413,M,1.6,0028*7A
141,1617296319.3233306,$GPGGA,172614.90,5522.11061095,N,01025.94769527,E,4,16,0.7,22.903,M,39.413,M,0.9,0028*74
142,1617296319.5915895,$GPGGA,172615.15,5522.11056891,N,01025.94799229,E,4,16,0.7,22.882,M,39.413,M,1.1,0028*77
143,1617296319.8599946,$GPGGA,172615.35,5522.11053478,N,01025.94826080,E,4,16,0.7,22.851,M,39.413,M,1.4,0028*7A
144,1617296320.1281674,$GPGGA,172615.80,5522.11044844,N,01025.94880493,E,4,16,0.7,22.871,M,39.413,M,1.8,0028*75
145,1617296320.3963177,$GPGGA,172616.00,5522.11039920,N,01025.94905257,E,4,16,0.7,22.904,M,39.413,M,2.0,0028*7D
146,1617296320.6646204,$GPGGA,172616.25,5522.11034069,N,01025.94935194,E,4,16,0.7,22.871,M,39.413,M,1.3,0028*7F
147,1617296320.9391541,$GPGGA,172616.50,5522.11027786,N,01025.94966266,E,4,16,0.7,22.874,M,39.413,M,1.5,0028*72
148,1617296321.2104194,$GPGGA,172616.75,5522.11020189,N,01025.94994048,E,4,16,0.7,22.872,M,39.413,M,1.8,0028*73
149,1617296321.4915385,$GPGGA,172617.00,5522.11010872,N,01025.95021757,E,4,16,0.7,22.880,M,39.413,M,1.0,0028*74
150,1617296321.761459,$GPGGA,172617.45,5522.10994124,N,01025.95070339,E,4,16,0.7,22.898,M,39.413,M,1.5,0028*7F
151,1617296322.029436,$GPGGA,172617.70,5522.10982504,N,01025.95096077,E,4,16,0.7,22.950,M,39.413,M,1.7,0028*7E
152,1617296322.2980943,$GPGGA,172617.90,5522.10973296,N,01025.95113710,E,4,16,0.7,22.935,M,39.413,M,1.9,0028*75
153,1617296322.5670953,$GPGGA,172618.15,5522.10959051,N,01025.95134304,E,4,15,0.7,22.886,M,39.413,M,1.1,0028*70
154,1617296322.835317,$GPGGA,172618.35,5522.10949139,N,01025.95149672,E,4,15,0.7,22.928,M,39.413,M,1.4,0028*72
155,1617296323.1055632,$GPGGA,172618.80,5522.10922583,N,01025.95178511,E,4,15,0.7,22.927,M,39.413,M,1.8,0028*73
156,1617296323.3746595,$GPGGA,172619.10,5522.10903285,N,01025.95190745,E,4,14,0.8,22.902,M,39.413,M,1.1,0028*7C
157,1617296323.6434448,$GPGGA,172619.35,5522.10886929,N,01025.95197228,E,4,14,0.8,22.900,M,39.413,M,1.4,0028*74
158,1617296323.9118445,$GPGGA,172619.60,5522.10870279,N,01025.95204006,E,4,14,0.8,22.909,M,39.413,M,1.6,0028*7F
159,1617296324.1792073,$GPGGA,172619.80,5522.10856988,N,01025.95204127,E,4,14,0.8,22.887,M,39.413,M,1.8,0028*7B
160,1617296324.4469428,$GPGGA,172620.00,5522.10842825,N,01025.95202962,E,4,14,0.8,22.927,M,39.413,M,2.0,0028*75
161,1617296324.7148464,$GPGGA,172620.25,5522.10825616,N,01025.95198427,E,4,14,0.8,22.914,M,39.413,M,2.3,0028*72
162,1617296324.9819822,$GPGGA,172620.50,5522.10808332,N,01025.95189037,E,4,13,0.9,22.926,M,39.413,M,1.5,0028*7B
163,1617296325.2492094,$GPGGA,172620.95,5522.10779041,N,01025.95167976,E,4,12,0.9,22.919,M,39.413,M,2.0,0028*7B
164,1617296325.516703,$GPGGA,172621.20,5522.10765375,N,01025.95151306,E,4,12,0.9,22.908,M,39.413,M,1.2,0028*74
165,1617296325.782689,$GPGGA,172621.40,5522.10754077,N,01025.95137247,E,4,12,0.9,22.873,M,39.413,M,1.4,0028*7E
166,1617296326.0565636,$GPGGA,172621.65,5522.10740159,N,01025.95116602,E,4,12,0.9,22.905,M,39.413,M,1.6,0028*75
167,1617296326.323467,$GPGGA,172621.85,5522.10728462,N,01025.95105444,E,4,12,0.9,22.985,M,39.413,M,0.9,0028*7C
168,1617296326.5977323,$GPGGA,172622.30,5522.10703614,N,01025.95072428,E,4,12,0.9,22.917,M,39.413,M,1.3,0028*70
169,1617296326.8673794,$GPGGA,172622.50,5522.10692198,N,01025.95061933,E,4,12,0.9,22.929,M,39.413,M,1.5,0028*72
170,1617296327.134938,$GPGGA,172622.75,5522.10675479,N,01025.95050714,E,4,12,0.9,22.896,M,39.413,M,1.8,0028*77
171,1617296327.4020438,$GPGGA,172623.00,5522.10659478,N,01025.95042635,E,4,12,0.9,22.920,M,39.413,M,2.0,0028*7D
172,1617296327.6714997,$GPGGA,172623.25,5522.10642655,N,01025.95035615,E,4,12,0.9,22.900,M,39.413,M,1.3,0028*7D
173,1617296327.9385042,$GPGGA,172623.50,5522.10625559,N,01025.95030850,E,4,12,0.9,22.932,M,39.413,M,1.5,0028*7C
174,1617296328.2069278,$GPGGA,172623.75,5522.10608916,N,01025.95025761,E,4,12,0.9,22.905,M,39.413,M,1.8,0028*73
175,1617296328.4755764,$GPGGA,172624.00,5522.10590743,N,01025.95020480,E,4,12,0.9,22.922,M,39.413,M,1.0,0028*7E
176,1617296328.743518,$GPGGA,172624.25,5522.10573366,N,01025.95017272,E,4,12,0.9,22.930,M,39.413,M,1.3,0028*78
177,1617296329.0132883,$GPGGA,172624.50,5522.10555120,N,01025.95015469,E,4,12,0.9,22.913,M,39.413,M,1.5,0028*77
178,1617296329.2865357,$GPGGA,172624.95,5522.10523852,N,01025.95010451,E,4,12,0.9,22.919,M,39.413,M,2.0,0028*71
179,1617296329.5548756,$GPGGA,172625.20,5522.10507205,N,01025.95008582,E,4,12,0.9,22.962,M,39.413,M,1.2,0028*7B
180,1617296329.8236103,$GPGGA,172625.40,5522.10493276,N,01025.95007905,E,4,12,0.9,22.940,M,39.413,M,1.4,0028*7F
181,1617296330.0918849,$GPGGA,172625.65,5522.10474886,N,01025.95007437,E,4,12,0.9,22.923,M,39.413,M,1.6,0028*7F
182,1617296330.3597465,$GPGGA,172625.90,5522.10458230,N,01025.95007900,E,4,12,0.9,22.975,M,39.413,M,0.9,0028*78
183,1617296330.652043,$GPGGA,172626.35,5522.10426399,N,01025.95011668,E,4,12,0.9,22.983,M,39.413,M,1.4,0028*7C
184,1617296330.921352,$GPGGA,172626.60,5522.10409767,N,01025.95016480,E,4,12,0.9,22.954,M,39.413,M,1.6,0028*7F
185,1617296331.1996775,$GPGGA,172626.80,5522.10395319,N,01025.95023434,E,4,12,0.9,22.992,M,39.413,M,1.8,0028*73
186,1617296331.4706888,$GPGGA,172627.00,5522.10381859,N,01025.95030045,E,4,12,0.9,22.993,M,39.413,M,2.0,0028*7A
187,1617296331.7404842,$GPGGA,172627.45,5522.10351505,N,01025.95050125,E,4,12,0.9,22.988,M,39.413,M,1.5,0028*7F
188,1617296332.0117736,$GPGGA,172627.65,5522.10338765,N,01025.95061554,E,4,12,0.9,22.964,M,39.413,M,1.6,0028*77
189,1617296332.2830687,$GPGGA,172627.90,5522.10322944,N,01025.95076081,E,4,13,0.8,22.938,M,39.413,M,0.9,0028*77
190,1617296332.5532033,$GPGGA,172628.15,5522.10306475,N,01025.95091427,E,4,13,0.8,22.955,M,39.413,M,1.1,0028*7F
191,1617296332.822949,$GPGGA,172628.35,5522.10292648,N,01025.95103191,E,4,13,0.8,22.916,M,39.413,M,1.4,0028*7D
192,1617296333.0924745,$GPGGA,172628.80,5522.10262457,N,01025.95129699,E,4,13,0.8,22.916,M,39.413,M,1.8,0028*7B
193,1617296333.3613808,$GPGGA,172629.00,5522.10248917,N,01025.95142827,E,4,13,0.8,22.919,M,39.413,M,2.0,0028*71
194,1617296333.6315114,$GPGGA,172629.25,5522.10232051,N,01025.95156888,E,4,13,0.8,22.927,M,39.413,M,1.3,0028*7D
195,1617296333.9022424,$GPGGA,172629.50,5522.10215226,N,01025.95171106,E,4,13,0.8,22.908,M,39.413,M,1.5,0028*79
196,1617296334.1715307,$GPGGA,172629.75,5522.10197929,N,01025.95186118,E,4,13,0.8,22.939,M,39.413,M,1.8,0028*7B
197,1617296334.4422565,$GPGGA,172630.00,5522.10181207,N,01025.95199288,E,4,13,0.8,22.916,M,39.413,M,1.0,0028*70
198,1617296334.7120965,$GPGGA,172630.45,5522.10150763,N,01025.95222388,E,4,13,0.8,22.956,M,39.413,M,1.5,0028*79
199,1617296334.9816866,$GPGGA,172630.65,5522.10136635,N,01025.95231220,E,4,13,0.8,22.943,M,39.413,M,1.6,0028*7F
200,1617296335.2742803,$GPGGA,172630.90,5522.10120078,N,01025.95243336,E,4,13,0.8,22.968,M,39.413,M,1.9,0028*78
201,1617296335.5445113,$GPGGA,172631.15,5522.10103741,N,01025.95254573,E,4,13,0.8,22.950,M,39.413,M,1.1,0028*7A
202,1617296335.816218,$GPGGA,172631.40,5522.10086037,N,01025.95265456,E,4,13,0.8,22.975,M,39.413,M,1.4,0028*76
203,1617296336.0869746,$GPGGA,172631.65,5522.10069020,N,01025.95275110,E,4,13,0.8,22.943,M,39.413,M,1.6,0028*77
204,1617296336.3727655,$GPGGA,172632.10,5522.10037124,N,01025.95294747,E,4,13,0.8,22.937,M,39.413,M,1.1,0028*77
205,1617296336.642866,$GPGGA,172632.30,5522.10022356,N,01025.95303268,E,4,13,0.8,22.917,M,39.413,M,1.3,0028*71
206,1617296336.91324,$GPGGA,172632.50,5522.10007723,N,01025.95310524,E,4,13,0.8,22.949,M,39.413,M,1.5,0028*76
207,1617296337.1831818,$GPGGA,172632.75,5522.09990112,N,01025.95318979,E,4,13,0.8,22.904,M,39.413,M,1.8,0028*72
208,1617296337.4603305,$GPGGA,172632.95,5522.09974732,N,01025.95325313,E,4,13,0.8,22.942,M,39.413,M,2.0,0028*73
209,1617296337.729992,$GPGGA,172633.45,5522.09937413,N,01025.95341037,E,4,15,0.7,22.884,M,39.413,M,1.5,0028*7B
210,1617296337.9993186,$GPGGA,172633.70,5522.09920393,N,01025.95345119,E,4,15,0.7,22.901,M,39.413,M,1.7,0028*73
211,1617296338.2680078,$GPGGA,172633.95,5522.09900692,N,01025.95349989,E,4,15,0.7,22.899,M,39.413,M,0.9,0028*7C
212,1617296338.5382144,$GPGGA,172634.20,5522.09883083,N,01025.95356728,E,4,15,0.7,22.900,M,39.413,M,1.2,0028*79
213,1617296338.807573,$GPGGA,172634.40,5522.09868630,N,01025.95361192,E,4,15,0.7,22.876,M,39.413,M,1.4,0028*71
214,1617296339.0763583,$GPGGA,172634.60,5522.09852904,N,01025.95366535,E,4,15,0.7,22.931,M,39.413,M,1.6,0028*7C
215,1617296339.3454497,$GPGGA,172635.00,5522.09824478,N,01025.95368480,E,4,15,0.7,22.883,M,39.413,M,2.0,0028*70
216,1617296339.6149638,$GPGGA,172635.25,5522.09805862,N,01025.95370263,E,4,15,0.7,22.891,M,39.413,M,1.3,0028*72
217,1617296339.8835669,$GPGGA,172635.50,5522.09787874,N,01025.95370224,E,4,15,0.7,22.856,M,39.413,M,1.5,0028*7C
218,1617296340.1531167,$GPGGA,172635.75,5522.09769293,N,01025.95370830,E,4,15,0.7,22.911,M,39.413,M,1.8,0028*78
219,1617296340.4221501,$GPGGA,172636.00,5522.09750193,N,01025.95370171,E,4,14,0.7,22.897,M,39.413,M,1.0,0028*7A
220,1617296340.690358,$GPGGA,172636.25,5522.09730886,N,01025.95369632,E,4,14,0.7,22.914,M,39.413,M,1.3,0028*77
221,1617296340.9601252,$GPGGA,172636.65,5522.09702198,N,01025.95372677,E,4,14,0.7,22.896,M,39.413,M,1.6,0028*71
222,1617296341.228679,$GPGGA,172636.85,5522.09687410,N,01025.95374287,E,4,14,0.7,22.938,M,39.413,M,1.9,0028*71
223,1617296341.5015748,$GPGGA,172637.10,5522.09669295,N,01025.95374696,E,4,14,0.7,22.912,M,39.413,M,2.1,0028*70
224,1617296341.7736018,$GPGGA,172637.50,5522.09640873,N,01025.95380081,E,4,14,0.7,22.947,M,39.413,M,1.5,0028*71
225,1617296342.0441928,$GPGGA,172637.75,5522.09623071,N,01025.95383653,E,4,14,0.7,22.914,M,39.413,M,1.8,0028*78
226,1617296342.3125181,$GPGGA,172637.95,5522.09609110,N,01025.95388235,E,4,14,0.7,22.935,M,39.413,M,0.9,0028*74
227,1617296342.5871818,$GPGGA,172638.20,5522.09592012,N,01025.95390928,E,4,14,0.7,22.930,M,39.413,M,1.2,0028*76
228,1617296342.855827,$GPGGA,172638.45,5522.09573797,N,01025.95393869,E,4,14,0.7,22.929,M,39.413,M,1.5,0028*78
229,1617296343.123954,$GPGGA,172638.70,5522.09555746,N,01025.95397545,E,4,14,0.8,22.945,M,39.413,M,1.7,0028*76
230,1617296343.3924968,$GPGGA,172639.10,5522.09526905,N,01025.95403464,E,4,14,0.8,22.944,M,39.413,M,2.1,0028*70
231,1617296343.6616282,$GPGGA,172639.30,5522.09512363,N,01025.95406494,E,4,14,0.8,22.937,M,39.413,M,1.3,0028*70
232,1617296343.929666,$GPGGA,172639.50,5522.09498232,N,01025.95408301,E,4,14,0.8,22.922,M,39.413,M,1.5,0028*77
233,1617296344.1998386,$GPGGA,172639.75,5522.09480392,N,01025.95413021,E,4,14,0.8,22.955,M,39.413,M,1.8,0028*74
234,1617296344.4687648,$GPGGA,172640.00,5522.09462251,N,01025.95416145,E,4,13,0.8,22.918,M,39.413,M,1.0,0028*7A
235,1617296344.737417,$GPGGA,172640.45,5522.09428550,N,01025.95420597,E,4,13,0.8,22.943,M,39.413,M,1.5,0028*76
236,1617296345.006774,$GPGGA,172640.70,5522.09409478,N,01025.95421913,E,4,13,0.8,22.958,M,39.413,M,1.7,0028*71
237,1617296345.2751055,$GPGGA,172640.95,5522.09391819,N,01025.95423439,E,4,13,0.8,22.972,M,39.413,M,2.0,0028*7C
238,1617296345.543638,$GPGGA,172641.20,5522.09373300,N,01025.95426895,E,4,13,0.8,22.940,M,39.413,M,1.2,0028*73
239,1617296345.812911,$GPGGA,172641.40,5522.09358532,N,01025.95428466,E,4,13,0.8,22.962,M,39.413,M,1.4,0028*73
240,1617296346.081392,$GPGGA,172641.65,5522.09340298,N,01025.95430519,E,4,13,0.8,22.932,M,39.413,M,1.6,0028*7D
241,1617296346.3499575,$GPGGA,172641.85,5522.09324925,N,01025.95432392,E,4,13,0.8,22.945,M,39.413,M,1.9,0028*74
242,1617296346.6226447,$GPGGA,172642.35,5522.09288390,N,01025.95438021,E,4,13,0.8,22.948,M,39.413,M,1.4,0028*7E
243,1617296346.8924637,$GPGGA,172642.60,5522.09270662,N,01025.95440139,E,4,13,0.8,22.938,M,39.413,M,1.6,0028*73
244,1617296347.164137,$GPGGA,172642.80,5522.09256011,N,01025.95441343,E,4,13,0.8,22.912,M,39.413,M,0.8,0028*72
245,1617296347.4342103,$GPGGA,172643.00,5522.09242528,N,01025.95442518,E,4,13,0.8,22.961,M,39.413,M,1.0,0028*77
246,1617296347.7026308,$GPGGA,172643.25,5522.09225184,N,01025.95443533,E,4,13,0.8,22.918,M,39.413,M,1.3,0028*76
247,1617296347.9710927,$GPGGA,172643.50,5522.09206971,N,01025.95446305,E,4,13,0.8,22.919,M,39.413,M,1.5,0028*76
248,1617296348.240779,$GPGGA,172643.95,5522.09175714,N,01025.95452651,E,4,13,0.8,22.866,M,39.413,M,2.0,0028*7B
249,1617296348.5093951,$GPGGA,172644.20,5522.09158141,N,01025.95459222,E,4,13,0.8,22.910,M,39.413,M,1.2,0028*71
250,1617296348.7787013,$GPGGA,172644.40,5522.09144704,N,01025.95462320,E,4,13,0.8,22.868,M,39.413,M,1.4,0028*7E
251,1617296349.047662,$GPGGA,172644.65,5522.09125967,N,01025.95466080,E,4,13,0.8,22.902,M,39.413,M,1.6,0028*77
252,1617296349.3158274,$GPGGA,172644.85,5522.09111806,N,01025.95467908,E,4,13,0.8,22.892,M,39.413,M,0.9,0028*76
253,1617296349.5845537,$GPGGA,172645.10,5522.09092977,N,01025.95469063,E,4,13,0.8,22.870,M,39.413,M,1.1,0028*79
254,1617296349.854372,$GPGGA,172645.35,5522.09075644,N,01025.95470973,E,4,13,0.8,22.910,M,39.413,M,1.4,0028*7A
255,1617296350.1231737,$GPGGA,172645.80,5522.09042944,N,01025.95475620,E,4,13,0.8,22.889,M,39.413,M,1.8,0028*7E
256,1617296350.392997,$GPGGA,172646.00,5522.09029383,N,01025.95477099,E,4,13,0.8,22.876,M,39.413,M,2.0,0028*74
257,1617296350.6637392,$GPGGA,172646.25,5522.09011386,N,01025.95480029,E,4,13,0.8,22.847,M,39.413,M,1.3,0028*7C
258,1617296350.9331176,$GPGGA,172646.50,5522.08993892,N,01025.95483572,E,4,13,0.8,22.883,M,39.413,M,1.5,0028*74
259,1617296351.2020702,$GPGGA,172646.75,5522.08976133,N,01025.95486650,E,4,13,0.8,22.856,M,39.413,M,1.8,0028*79
260,1617296351.470813,$GPGGA,172647.00,5522.08958969,N,01025.95489144,E,4,13,0.8,22.890,M,39.413,M,1.0,0028*7E
261,1617296351.7578466,$GPGGA,172647.45,5522.08926772,N,01025.95491209,E,4,13,0.8,22.867,M,39.413,M,1.5,0028*7C
262,1617296352.027097,$GPGGA,172647.70,5522.08909095,N,01025.95491998,E,4,13,0.8,22.855,M,39.413,M,1.7,0028*79
263,1617296352.2965164,$GPGGA,172647.95,5522.08890416,N,01025.95491519,E,4,13,0.8,22.868,M,39.413,M,2.0,0028*73
264,1617296352.5656753,$GPGGA,172648.20,5522.08873583,N,01025.95490180,E,4,13,0.8,22.863,M,39.413,M,1.2,0028*7D
265,1617296352.8557272,$GPGGA,172648.45,5522.08855717,N,01025.95487636,E,4,13,0.8,22.851,M,39.413,M,1.5,0028*7F
266,1617296353.1239874,$GPGGA,172648.70,5522.08838469,N,01025.95484160,E,4,13,0.8,22.873,M,39.413,M,1.7,0028*7D
267,1617296353.3928554,$GPGGA,172648.90,5522.08824227,N,01025.95480598,E,4,13,0.8,22.844,M,39.413,M,0.9,0028*7E
268,1617296353.6613197,$GPGGA,172649.35,5522.08793570,N,01025.95469121,E,4,13,0.8,22.920,M,39.413,M,1.4,0028*78
269,1617296353.928398,$GPGGA,172649.60,5522.08775660,N,01025.95460824,E,4,13,0.8,22.878,M,39.413,M,1.6,0028*79
270,1617296354.1966577,$GPGGA,172649.80,5522.08761840,N,01025.95453793,E,4,13,0.8,22.896,M,39.413,M,1.8,0028*73
271,1617296354.4640927,$GPGGA,172650.00,5522.08748342,N,01025.95445498,E,4,13,0.8,22.868,M,39.413,M,2.0,0028*74
272,1617296354.7315087,$GPGGA,172650.45,5522.08718831,N,01025.95422844,E,4,13,0.8,22.869,M,39.413,M,1.5,0028*74
273,1617296355.000193,$GPGGA,172650.70,5522.08702102,N,01025.95407838,E,4,13,0.8,22.853,M,39.413,M,1.7,0028*77
274,1617296355.2682903,$GPGGA,172650.95,5522.08685519,N,01025.95394532,E,4,14,0.7,22.879,M,39.413,M,0.9,0028*79
275,1617296355.5367286,$GPGGA,172651.15,5522.08672631,N,01025.95382482,E,4,14,0.7,22.831,M,39.413,M,1.1,0028*79
276,1617296355.8049228,$GPGGA,172651.40,5522.08656126,N,01025.95367600,E,4,14,0.7,22.860,M,39.413,M,1.4,0028*7C
277,1617296356.0722804,$GPGGA,172651.65,5522.08640645,N,01025.95352264,E,4,14,0.7,22.842,M,39.413,M,1.6,0028*7C
278,1617296356.3400896,$GPGGA,172651.85,5522.08627949,N,01025.95338823,E,4,14,0.7,22.850,M,39.413,M,1.9,0028*79
279,1617296356.6074307,$GPGGA,172652.30,5522.08600507,N,01025.95311520,E,4,14,0.7,22.856,M,39.413,M,1.3,0028*7E
280,1617296356.8753397,$GPGGA,172652.50,5522.08588128,N,01025.95297954,E,4,14,0.7,22.873,M,39.413,M,1.5,0028*73
281,1617296357.1435082,$GPGGA,172652.75,5522.08574282,N,01025.95280951,E,4,15,0.7,22.883,M,39.413,M,0.8,0028*75
282,1617296357.4128265,$GPGGA,172653.00,5522.08559965,N,01025.95261247,E,4,15,0.7,22.877,M,39.413,M,1.0,0028*7A
283,1617296357.681078,$GPGGA,172653.25,5522.08545997,N,01025.95242169,E,4,15,0.7,22.888,M,39.413,M,1.3,0028*70
284,1617296357.950714,$GPGGA,172653.50,5522.08531340,N,01025.95223876,E,4,15,0.7,22.869,M,39.413,M,1.5,0028*78
285,1617296358.2190385,$GPGGA,172653.75,5522.08517097,N,01025.95204771,E,4,15,0.7,22.893,M,39.413,M,1.8,0028*77
286,1617296358.4873762,$GPGGA,172654.00,5522.08503212,N,01025.95184603,E,4,15,0.7,22.873,M,39.413,M,2.0,0028*72
287,1617296358.7550752,$GPGGA,172654.25,5522.08489202,N,01025.95165851,E,4,15,0.7,22.920,M,39.413,M,1.3,0028*76
288,1617296359.0224102,$GPGGA,172654.75,5522.08461333,N,01025.95126082,E,4,15,0.7,22.915,M,39.413,M,1.8,0028*7A
289,1617296359.29099,$GPGGA,172654.95,5522.08451887,N,01025.95110605,E,4,15,0.7,22.879,M,39.413,M,0.9,0028*74
290,1617296359.5585182,$GPGGA,172655.20,5522.08439032,N,01025.95088850,E,4,15,0.7,22.862,M,39.413,M,1.2,0028*7D
291,1617296359.8263257,$GPGGA,172655.45,5522.08425806,N,01025.95067813,E,4,15,0.7,22.909,M,39.413,M,1.5,0028*71
292,1617296360.0943468,$GPGGA,172655.65,5522.08415254,N,01025.95050877,E,4,15,0.7,22.871,M,39.413,M,1.6,0028*76
293,1617296360.3619225,$GPGGA,172655.85,5522.08404524,N,01025.95032471,E,4,15,0.7,22.862,M,39.413,M,1.9,0028*7B
294,1617296360.6305153,$GPGGA,172656.30,5522.08381467,N,01025.94993489,E,4,14,0.7,22.855,M,39.413,M,1.3,0028*71
295,1617296360.8996468,$GPGGA,172656.55,5522.08369005,N,01025.94971547,E,4,14,0.7,22.899,M,39.413,M,1.5,0028*7D
296,1617296361.1680617,$GPGGA,172656.75,5522.08359814,N,01025.94954611,E,4,14,0.8,22.851,M,39.413,M,1.8,0028*75
297,1617296361.4372525,$GPGGA,172657.00,5522.08347552,N,01025.94933856,E,4,14,0.8,22.878,M,39.413,M,1.0,0028*79
298,1617296361.7055993,$GPGGA,172657.25,5522.08336573,N,01025.94912273,E,4,14,0.8,22.872,M,39.413,M,1.3,0028*7C
299,1617296361.973756,$GPGGA,172657.70,5522.08317296,N,01025.94872916,E,4,14,0.8,22.922,M,39.413,M,1.7,0028*7C
300,1617296362.242085,$GPGGA,172657.90,5522.08309197,N,01025.94853278,E,4,14,0.8,22.882,M,39.413,M,1.9,0028*7A
301,1617296362.5103319,$GPGGA,172658.10,5522.08299661,N,01025.94833656,E,4,14,0.8,22.884,M,39.413,M,2.1,0028*78
302,1617296362.7790122,$GPGGA,172658.35,5522.08289900,N,01025.94809916,E,4,13,0.8,22.856,M,39.413,M,1.4,0028*7A
303,1617296363.0474043,$GPGGA,172658.60,5522.08279949,N,01025.94785567,E,4,13,0.8,22.817,M,39.413,M,1.6,0028*7E
304,1617296363.3152182,$GPGGA,172659.00,5522.08262923,N,01025.94747944,E,4,14,0.8,22.837,M,39.413,M,1.0,0028*7F
305,1617296363.6107264,$GPGGA,172659.25,5522.08251088,N,01025.94723427,E,4,14,0.8,22.840,M,39.413,M,1.3,0028*79
306,1617296363.878383,$GPGGA,172659.45,5522.08243157,N,01025.94704467,E,4,14,0.8,22.837,M,39.413,M,1.5,0028*78
307,1617296364.146937,$GPGGA,172659.70,5522.08230958,N,01025.94680506,E,4,14,0.8,22.811,M,39.413,M,1.7,0028*70
308,1617296364.415129,$GPGGA,172700.15,5522.08209472,N,01025.94638260,E,4,14,0.8,22.765,M,39.413,M,1.1,0028*7F
309,1617296364.686387,$GPGGA,172700.35,5522.08199319,N,01025.94618896,E,4,14,0.8,22.779,M,39.413,M,1.4,0028*74
310,1617296364.9604275,$GPGGA,172700.60,5522.08189289,N,01025.94593436,E,4,14,0.8,22.806,M,39.413,M,1.6,0028*7E
311,1617296365.234401,$GPGGA,172700.80,5522.08180243,N,01025.94570887,E,4,14,0.8,22.757,M,39.413,M,1.8,0028*71
312,1617296365.5069637,$GPGGA,172701.00,5522.08170898,N,01025.94550461,E,4,14,0.8,22.782,M,39.413,M,1.0,0028*7D
313,1617296365.7811496,$GPGGA,172701.50,5522.08149982,N,01025.94498703,E,4,14,0.8,22.785,M,39.413,M,1.5,0028*78
314,1617296366.052499,$GPGGA,172701.75,5522.08140615,N,01025.94470953,E,4,14,0.8,22.755,M,39.413,M,1.8,0028*7A
315,1617296366.324448,$GPGGA,172702.00,5522.08131311,N,01025.94444741,E,4,14,0.8,22.761,M,39.413,M,2.0,0028*7A
316,1617296366.5961392,$GPGGA,172702.25,5522.08122628,N,01025.94417925,E,4,14,0.8,22.802,M,39.413,M,1.3,0028*70
317,1617296366.8715887,$GPGGA,172702.45,5522.08116159,N,01025.94396026,E,4,14,0.8,22.778,M,39.413,M,1.5,0028*70
318,1617296367.1493587,$GPGGA,172702.70,5522.08108662,N,01025.94365610,E,4,14,0.8,22.797,M,39.413,M,1.7,0028*7A
319,1617296367.419907,$GPGGA,172702.95,5522.08102280,N,01025.94338087,E,4,14,0.8,22.797,M,39.413,M,2.0,0028*77
320,1617296367.6922374,$GPGGA,172703.20,5522.08096170,N,01025.94308264,E,4,15,0.7,22.858,M,39.413,M,1.2,0028*77
321,1617296367.9629707,$GPGGA,172703.45,5522.08091130,N,01025.94278954,E,4,15,0.7,22.806,M,39.413,M,1.5,0028*75
322,1617296368.231906,$GPGGA,172703.90,5522.08084078,N,01025.94224451,E,4,15,0.7,22.771,M,39.413,M,0.9,0028*77
323,1617296368.4995377,$GPGGA,172704.15,5522.08079789,N,01025.94195484,E,4,15,0.7,22.737,M,39.413,M,1.1,0028*7C
324,1617296368.7687845,$GPGGA,172704.40,5522.08077787,N,01025.94163897,E,4,15,0.7,22.838,M,39.413,M,1.4,0028*7E
325,1617296369.0368195,$GPGGA,172704.65,5522.08073922,N,01025.94132390,E,4,15,0.7,22.788,M,39.413,M,1.6,0028*72
326,1617296369.3046334,$GPGGA,172704.85,5522.08071250,N,01025.94108727,E,4,15,0.7,22.806,M,39.413,M,1.9,0028*77
327,1617296369.5742533,$GPGGA,172705.30,5522.08067181,N,01025.94054249,E,4,15,0.7,22.805,M,39.413,M,1.3,0028*7C
328,1617296369.8421757,$GPGGA,172705.50,5522.08063513,N,01025.94030330,E,4,15,0.7,22.796,M,39.413,M,1.5,0028*7F
329,1617296370.1216373,$GPGGA,172705.75,5522.08061244,N,01025.93998035,E,4,15,0.7,22.791,M,39.413,M,1.8,0028*7F
330,1617296370.3918107,$GPGGA,172706.00,5522.08057303,N,01025.93966598,E,4,15,0.7,22.807,M,39.413,M,1.0,0028*72
331,1617296370.660707,$GPGGA,172706.25,5522.08054326,N,01025.93935114,E,4,15,0.7,22.814,M,39.413,M,1.3,0028*76
332,1617296370.9283638,$GPGGA,172706.50,5522.08051071,N,01025.93904746,E,4,15,0.7,22.789,M,39.413,M,1.5,0028*7E
333,1617296371.1971552,$GPGGA,172706.75,5522.08047332,N,01025.93873978,E,4,15,0.7,22.844,M,39.413,M,1.8,0028*7B
334,1617296371.465656,$GPGGA,172707.15,5522.08042051,N,01025.93825345,E,4,14,0.8,22.837,M,39.413,M,1.1,0028*7B
335,1617296371.7476127,$GPGGA,172707.40,5522.08039691,N,01025.93796569,E,4,14,0.8,22.799,M,39.413,M,1.4,0028*7C
336,1617296372.0210214,$GPGGA,172707.65,5522.08038576,N,01025.93765876,E,4,14,0.8,22.807,M,39.413,M,1.6,0028*75
337,1617296372.2933269,$GPGGA,172707.85,5522.08037877,N,01025.93741459,E,4,13,0.8,22.812,M,39.413,M,0.9,0028*72
338,1617296372.5644596,$GPGGA,172708.30,5522.08035555,N,01025.93686081,E,4,13,0.8,22.810,M,39.413,M,1.3,0028*7E
339,1617296372.8327065,$GPGGA,172708.50,5522.08035444,N,01025.93661584,E,4,13,0.8,22.785,M,39.413,M,1.5,0028*75
340,1617296373.1025248,$GPGGA,172708.75,5522.08035458,N,01025.93630222,E,4,13,0.8,22.781,M,39.413,M,1.8,0028*79
341,1617296373.372019,$GPGGA,172709.00,5522.08034728,N,01025.93599724,E,4,13,0.8,22.813,M,39.413,M,2.0,0028*73
342,1617296373.6401258,$GPGGA,172709.25,5522.08034138,N,01025.93569315,E,4,14,0.8,22.783,M,39.413,M,1.3,0028*7B
343,1617296373.9105694,$GPGGA,172709.45,5522.08033645,N,01025.93545113,E,4,14,0.8,22.827,M,39.413,M,1.5,0028*7A
344,1617296374.1790147,$GPGGA,172709.90,5522.08032717,N,01025.93487614,E,4,13,0.8,22.786,M,39.413,M,0.9,0028*74
345,1617296374.4488604,$GPGGA,172710.15,5522.08032572,N,01025.93456741,E,4,13,0.8,22.781,M,39.413,M,1.1,0028*73
346,1617296374.7193358,$GPGGA,172710.40,5522.08031820,N,01025.93425828,E,4,13,0.8,22.750,M,39.413,M,1.4,0028*77
347,1617296374.9880035,$GPGGA,172710.65,5522.08031134,N,01025.93394928,E,4,13,0.8,22.774,M,39.413,M,1.6,0028*74
348,1617296375.2573564,$GPGGA,172710.85,5522.08030467,N,01025.93370181,E,4,13,0.8,22.753,M,39.413,M,1.9,0028*73
349,1617296375.5268457,$GPGGA,172711.10,5522.08029577,N,01025.93337699,E,4,16,0.7,22.802,M,39.413,M,1.1,0028*72
350,1617296375.7953818,$GPGGA,172711.35,5522.08028883,N,01025.93305872,E,4,16,0.7,22.753,M,39.413,M,1.4,0028*76
351,1617296376.065063,$GPGGA,172711.60,5522.08027608,N,01025.93275032,E,4,16,0.7,22.795,M,39.413,M,1.6,0028*76
352,1617296376.3350892,$GPGGA,172711.85,5522.08027545,N,01025.93244346,E,4,16,0.7,22.782,M,39.413,M,0.9,0028*7D
353,1617296376.6036067,$GPGGA,172712.30,5522.08026742,N,01025.93188123,E,4,16,0.7,22.805,M,39.413,M,1.3,0028*7D
354,1617296376.8734946,$GPGGA,172712.50,5522.08026535,N,01025.93163467,E,4,16,0.7,22.772,M,39.413,M,1.5,0028*70
355,1617296377.2123468,$GPGGA,172712.75,5522.08025551,N,01025.93132307,E,4,16,0.7,22.799,M,39.413,M,1.8,0028*7B
356,1617296377.4827197,$GPGGA,172713.00,5522.08025271,N,01025.93102040,E,4,16,0.7,22.808,M,39.413,M,2.0,0028*72
357,1617296377.752711,$GPGGA,172713.25,5522.08025481,N,01025.93070818,E,4,16,0.7,22.810,M,39.413,M,1.3,0028*74
358,1617296378.024949,$GPGGA,172713.75,5522.08024213,N,01025.93010430,E,4,16,0.7,22.785,M,39.413,M,1.8,0028*75
359,1617296378.3134468,$GPGGA,172714.00,5522.08023796,N,01025.92980291,E,4,16,0.7,22.815,M,39.413,M,1.0,0028*7D
360,1617296378.583032,$GPGGA,172714.25,5522.08022863,N,01025.92950165,E,4,16,0.7,22.762,M,39.413,M,1.3,0028*77
361,1617296378.8537676,$GPGGA,172714.50,5522.08021566,N,01025.92919291,E,4,16,0.7,22.809,M,39.413,M,1.5,0028*7F
362,1617296379.1237276,$GPGGA,172714.75,5522.08020382,N,01025.92888998,E,4,17,0.7,22.765,M,39.413,M,0.8,0028*76
363,1617296379.394163,$GPGGA,172714.95,5522.08019037,N,01025.92864369,E,4,17,0.7,22.761,M,39.413,M,0.9,0028*7C
364,1617296379.6651347,$GPGGA,172715.15,5522.08019021,N,01025.92841744,E,4,17,0.7,22.762,M,39.413,M,1.1,0028*74
365,1617296379.9345083,$GPGGA,172715.65,5522.08018177,N,01025.92781196,E,4,17,0.7,22.778,M,39.413,M,1.6,0028*76
366,1617296380.206129,$GPGGA,172715.85,5522.08016705,N,01025.92757795,E,4,17,0.7,22.787,M,39.413,M,1.9,0028*74
367,1617296380.4761996,$GPGGA,172716.10,5522.08015067,N,01025.92725260,E,4,17,0.7,22.784,M,39.413,M,1.1,0028*7A
368,1617296380.7456143,$GPGGA,172716.30,5522.08014740,N,01025.92702227,E,4,17,0.7,22.828,M,39.413,M,1.3,0028*76
369,1617296381.0153608,$GPGGA,172716.75,5522.08012384,N,01025.92647254,E,4,15,0.7,22.827,M,39.413,M,0.8,0028*7E
370,1617296381.2840307,$GPGGA,172716.95,5522.08011314,N,01025.92624804,E,4,15,0.7,22.819,M,39.413,M,0.9,0028*7C
371,1617296381.5523508,$GPGGA,172717.20,5522.08008106,N,01025.92592752,E,4,15,0.7,22.775,M,39.413,M,1.2,0028*77
372,1617296381.8215554,$GPGGA,172717.40,5522.08006447,N,01025.92569362,E,4,15,0.7,22.822,M,39.413,M,1.4,0028*77
373,1617296382.0934768,$GPGGA,172717.65,5522.08002779,N,01025.92540246,E,4,15,0.7,22.792,M,39.413,M,1.6,0028*70
374,1617296382.364582,$GPGGA,172718.10,5522.07997569,N,01025.92490105,E,4,13,0.8,22.807,M,39.413,M,1.1,0028*71
375,1617296382.6366212,$GPGGA,172718.30,5522.07994851,N,01025.92467374,E,4,13,0.8,22.770,M,39.413,M,1.3,0028*77
376,1617296382.9077592,$GPGGA,172718.50,5522.07991436,N,01025.92444886,E,4,13,0.8,22.832,M,39.413,M,1.5,0028*71
377,1617296383.1812391,$GPGGA,172718.75,5522.07986854,N,01025.92418363,E,4,13,0.8,22.780,M,39.413,M,1.8,0028*7A
378,1617296383.450289,$GPGGA,172719.00,5522.07982033,N,01025.92388662,E,4,13,0.8,22.742,M,39.413,M,1.0,0028*78
379,1617296383.7200067,$GPGGA,172719.25,5522.07977354,N,01025.92361084,E,4,13,0.8,22.760,M,39.413,M,1.3,0028*7D
380,1617296383.989361,$GPGGA,172719.50,5522.07971945,N,01025.92332971,E,4,13,0.8,22.776,M,39.413,M,1.5,0028*77
381,1617296384.2594066,$GPGGA,172719.95,5522.07961864,N,01025.92284311,E,4,13,0.8,22.772,M,39.413,M,2.0,0028*7F
382,1617296384.5294805,$GPGGA,172720.15,5522.07957043,N,01025.92260243,E,4,13,0.8,22.756,M,39.413,M,1.1,0028*7D
383,1617296384.7996323,$GPGGA,172720.40,5522.07950962,N,01025.92234907,E,4,13,0.8,22.779,M,39.413,M,1.4,0028*72
384,1617296385.0696838,$GPGGA,172720.65,5522.07943873,N,01025.92206491,E,4,13,0.8,22.792,M,39.413,M,1.6,0028*72
385,1617296385.3404822,$GPGGA,172720.90,5522.07934790,N,01025.92182355,E,4,13,0.8,22.833,M,39.413,M,0.9,0028*70
386,1617296385.6104383,$GPGGA,172721.10,5522.07931107,N,01025.92162667,E,4,13,0.8,22.838,M,39.413,M,1.1,0028*7C
387,1617296385.8800817,$GPGGA,172721.60,5522.07915546,N,01025.92114311,E,4,12,0.9,22.872,M,39.413,M,1.6,0028*70
388,1617296386.1508968,$GPGGA,172721.80,5522.07905480,N,01025.92094094,E,4,12,0.9,22.822,M,39.413,M,1.8,0028*78
389,1617296386.421188,$GPGGA,172722.00,5522.07896642,N,01025.92076974,E,4,12,0.9,22.842,M,39.413,M,2.0,0028*72
390,1617296386.6907825,$GPGGA,172722.25,5522.07885614,N,01025.92054909,E,4,11,1.0,22.736,M,39.413,M,1.3,0028*79
391,1617296386.961018,$GPGGA,172722.50,5522.07875628,N,01025.92029573,E,4,11,1.0,22.752,M,39.413,M,1.5,0028*74
392,1617296387.236234,$GPGGA,172722.95,5522.07855723,N,01025.91988416,E,4,11,1.0,22.752,M,39.413,M,0.9,0028*7B
393,1617296387.5057795,$GPGGA,172723.15,5522.07848860,N,01025.91972723,E,4,11,1.0,22.814,M,39.413,M,1.1,0028*72
394,1617296387.7767708,$GPGGA,172723.40,5522.07840070,N,01025.91948020,E,4,11,1.0,22.802,M,39.413,M,1.4,0028*7C
395,1617296388.0732214,$GPGGA,172723.65,5522.07833224,N,01025.91920682,E,4,11,1.0,22.816,M,39.413,M,1.6,0028*7B
396,1617296388.3428345,$GPGGA,172723.85,5522.07828650,N,01025.91899880,E,4,11,1.0,22.817,M,39.413,M,1.9,0028*79
397,1617296388.6117237,$GPGGA,172724.30,5522.07819062,N,01025.91850633,E,4,13,0.8,22.821,M,39.413,M,1.3,0028*72
398,1617296388.880475,$GPGGA,172724.50,5522.07814987,N,01025.91827072,E,4,13,0.8,22.872,M,39.413,M,1.5,0028*78
399,1617296389.1497006,$GPGGA,172724.75,5522.07813036,N,01025.91799221,E,4,12,0.9,22.733,M,39.413,M,0.8,0028*73
400,1617296389.418541,$GPGGA,172725.00,5522.07810874,N,01025.91768565,E,4,12,0.9,22.812,M,39.413,M,1.0,0028*71
401,1617296389.6866624,$GPGGA,172725.25,5522.07810226,N,01025.91740895,E,4,12,0.9,22.787,M,39.413,M,1.3,0028*73
402,1617296389.9560182,$GPGGA,172725.50,5522.07808054,N,01025.91709272,E,4,12,0.9,22.796,M,39.413,M,1.5,0028*77
403,1617296390.224527,$GPGGA,172725.95,5522.07804077,N,01025.91654514,E,4,12,0.9,22.770,M,39.413,M,2.0,0028*73
404,1617296390.4928358,$GPGGA,172726.20,5522.07804109,N,01025.91624113,E,4,12,0.9,22.847,M,39.413,M,1.2,0028*78
405,1617296390.7636828,$GPGGA,172726.40,5522.07802599,N,01025.91600542,E,4,12,0.9,22.821,M,39.413,M,1.4,0028*75
406,1617296391.0325472,$GPGGA,172726.65,5522.07800309,N,01025.91570052,E,4,12,0.9,22.871,M,39.413,M,1.6,0028*78
407,1617296391.3020797,$GPGGA,172726.85,5522.07799589,N,01025.91547180,E,4,12,0.9,22.877,M,39.413,M,1.9,0028*74
408,1617296391.5715263,$GPGGA,172727.10,5522.07798103,N,01025.91516983,E,4,13,0.9,22.829,M,39.413,M,1.1,0028*73
409,1617296391.840207,$GPGGA,172727.35,5522.07796647,N,01025.91486970,E,4,13,0.9,22.878,M,39.413,M,1.4,0028*78
410,1617296392.110153,$GPGGA,172727.60,5522.07795258,N,01025.91455703,E,4,13,0.9,22.824,M,39.413,M,1.6,0028*7E
411,1617296392.4085035,$GPGGA,172728.10,5522.07793515,N,01025.91392957,E,4,11,0.9,22.833,M,39.413,M,1.1,0028*7E
412,1617296392.6796706,$GPGGA,172728.30,5522.07793198,N,01025.91367119,E,4,11,0.9,22.839,M,39.413,M,1.3,0028*7D
413,1617296392.9508421,$GPGGA,172728.50,5522.07793104,N,01025.91342948,E,4,11,0.9,22.901,M,39.413,M,1.5,0028*79
414,1617296393.2201216,$GPGGA,172728.75,5522.07792165,N,01025.91310945,E,4,12,0.9,22.849,M,39.413,M,0.8,0028*70
415,1617296393.4898841,$GPGGA,172729.00,5522.07791751,N,01025.91279579,E,4,12,0.9,22.902,M,39.413,M,1.0,0028*7B
416,1617296393.760793,$GPGGA,172729.45,5522.07792067,N,01025.91223114,E,4,12,0.9,22.893,M,39.413,M,1.5,0028*77
417,1617296394.031293,$GPGGA,172729.70,5522.07791872,N,01025.91191860,E,4,12,0.9,22.920,M,39.413,M,1.7,0028*75
418,1617296394.3012528,$GPGGA,172729.90,5522.07791108,N,01025.91165620,E,4,12,0.9,22.888,M,39.413,M,1.9,0028*73
419,1617296394.572177,$GPGGA,172730.15,5522.07791923,N,01025.91134721,E,4,13,0.8,22.922,M,39.413,M,1.1,0028*7A
420,1617296394.8415806,$GPGGA,172730.35,5522.07791261,N,01025.91109076,E,4,13,0.8,22.867,M,39.413,M,1.4,0028*7B
421,1617296395.1121962,$GPGGA,172730.80,5522.07791223,N,01025.91052789,E,4,13,0.8,22.899,M,39.413,M,0.8,0028*77
422,1617296395.381571,$GPGGA,172731.00,5522.07791691,N,01025.91026598,E,4,13,0.8,22.862,M,39.413,M,1.0,0028*7F
423,1617296395.6505575,$GPGGA,172731.25,5522.07792473,N,01025.90995289,E,4,13,0.8,22.910,M,39.413,M,1.3,0028*75
424,1617296395.9211423,$GPGGA,172731.45,5522.07793615,N,01025.90968903,E,4,13,0.8,22.903,M,39.413,M,1.5,0028*7F
425,1617296396.192057,$GPGGA,172731.90,5522.07797755,N,01025.90913013,E,4,13,0.8,22.887,M,39.413,M,0.9,0028*72
426,1617296396.462268,$GPGGA,172732.15,5522.07799617,N,01025.90881590,E,4,13,0.8,22.841,M,39.413,M,1.1,0028*72
427,1617296396.7337215,$GPGGA,172732.35,5522.07802158,N,01025.90857430,E,4,13,0.8,22.889,M,39.413,M,1.4,0028*70
428,1617296397.0046864,$GPGGA,172732.60,5522.07805563,N,01025.90826096,E,4,13,0.8,22.833,M,39.413,M,1.6,0028*76
429,1617296397.275267,$GPGGA,172732.80,5522.07808677,N,01025.90800390,E,4,13,0.8,22.837,M,39.413,M,1.8,0028*78
430,1617296397.549349,$GPGGA,172733.25,5522.07816659,N,01025.90744052,E,4,14,0.8,22.807,M,39.413,M,1.3,0028*78
431,1617296397.8261883,$GPGGA,172733.45,5522.07820542,N,01025.90719253,E,4,14,0.8,22.848,M,39.413,M,1.5,0028*74
432,1617296398.1028216,$GPGGA,172733.70,5522.07826083,N,01025.90688822,E,4,14,0.8,22.804,M,39.413,M,1.7,0028*73
433,1617296398.379141,$GPGGA,172734.10,5522.07836825,N,01025.90639092,E,4,13,0.9,22.836,M,39.413,M,1.1,0028*7F
434,1617296398.6528413,$GPGGA,172734.35,5522.07842618,N,01025.90605550,E,4,13,0.9,22.766,M,39.413,M,1.4,0028*70
435,1617296398.926816,$GPGGA,172734.60,5522.07848970,N,01025.90576508,E,4,13,0.9,22.808,M,39.413,M,1.6,0028*74
436,1617296399.2012007,$GPGGA,172734.80,5522.07853866,N,01025.90551556,E,4,14,0.8,22.765,M,39.413,M,0.8,0028*75
437,1617296399.4752746,$GPGGA,172735.00,5522.07859135,N,01025.90526245,E,4,14,0.8,22.774,M,39.413,M,1.0,0028*75
438,1617296399.7492344,$GPGGA,172735.25,5522.07864187,N,01025.90495652,E,4,14,0.8,22.796,M,39.413,M,1.3,0028*71
439,1617296400.0230389,$GPGGA,172735.75,5522.07873903,N,01025.90433368,E,4,14,0.8,22.790,M,39.413,M,1.8,0028*7B
440,1617296400.2980356,$GPGGA,172736.00,5522.07878790,N,01025.90401851,E,4,14,0.8,22.736,M,39.413,M,2.0,0028*72
441,1617296400.5743392,$GPGGA,172736.25,5522.07882867,N,01025.90371809,E,4,14,0.8,22.764,M,39.413,M,1.3,0028*7D
442,1617296400.846454,$GPGGA,172736.45,5522.07884478,N,01025.90346834,E,4,14,0.8,22.730,M,39.413,M,1.5,0028*72
443,1617296401.1191037,$GPGGA,172736.65,5522.07885627,N,01025.90321420,E,4,14,0.8,22.760,M,39.413,M,1.6,0028*77
444,1617296401.4059908,$GPGGA,172736.90,5522.07886744,N,01025.90291362,E,4,14,0.8,22.843,M,39.413,M,1.9,0028*70
445,1617296401.6928995,$GPGGA,172737.35,5522.07887331,N,01025.90235030,E,4,14,1.0,22.791,M,39.413,M,1.4,0028*77
446,1617296401.9680343,$GPGGA,172737.60,5522.07885852,N,01025.90204931,E,4,14,1.0,22.784,M,39.413,M,1.6,0028*77
447,1617296402.2380872,$GPGGA,172737.80,5522.07886652,N,01025.90179267,E,4,13,1.0,22.770,M,39.413,M,0.8,0028*76
448,1617296402.5078852,$GPGGA,172738.00,5522.07885426,N,01025.90154751,E,4,13,1.0,22.814,M,39.413,M,1.0,0028*78
449,1617296402.7779512,$GPGGA,172738.45,5522.07883145,N,01025.90099966,E,4,13,1.0,22.793,M,39.413,M,1.5,0028*70
450,1617296403.0479167,$GPGGA,172738.70,5522.07880473,N,01025.90069106,E,4,13,1.0,22.761,M,39.413,M,1.7,0028*7B
451,1617296403.317663,$GPGGA,172738.90,5522.07877746,N,01025.90042664,E,4,13,1.0,22.740,M,39.413,M,1.9,0028*7F
452,1617296403.5879624,$GPGGA,172739.15,5522.07877257,N,01025.90013946,E,4,13,0.8,22.797,M,39.413,M,1.1,0028*76
453,1617296403.8618996,$GPGGA,172739.35,5522.07875099,N,01025.89988753,E,4,13,0.8,22.728,M,39.413,M,1.4,0028*7E
454,1617296404.1344323,$GPGGA,172739.80,5522.07871430,N,01025.89931114,E,4,12,0.9,22.802,M,39.413,M,1.8,0028*7F
455,1617296404.402731,$GPGGA,172740.00,5522.07867244,N,01025.89906351,E,4,12,1.1,22.747,M,39.413,M,1.0,0028*73
456,1617296404.6732938,$GPGGA,172740.25,5522.07864456,N,01025.89875985,E,4,12,1.1,22.790,M,39.413,M,1.3,0028*7D
457,1617296404.9425273,$GPGGA,172740.50,5522.07860363,N,01025.89842492,E,4,12,1.1,22.720,M,39.413,M,1.5,0028*78
458,1617296405.2118506,$GPGGA,172740.75,5522.07857432,N,01025.89810378,E,4,12,1.1,22.774,M,39.413,M,1.8,0028*70
459,1617296405.4886906,$GPGGA,172741.15,5522.07851699,N,01025.89758230,E,4,12,0.9,22.771,M,39.413,M,1.1,0028*79
460,1617296405.7670572,$GPGGA,172741.40,5522.07848996,N,01025.89726693,E,4,12,0.9,22.808,M,39.413,M,1.4,0028*71
461,1617296406.0413384,$GPGGA,172741.65,5522.07846298,N,01025.89693700,E,4,12,0.9,22.757,M,39.413,M,1.6,0028*7E
462,1617296406.327211,$GPGGA,172741.85,5522.07845251,N,01025.89668564,E,4,12,0.9,22.777,M,39.413,M,1.9,0028*7F
463,1617296406.6138725,$GPGGA,172742.30,5522.07840356,N,01025.89610289,E,4,12,0.9,22.728,M,39.413,M,1.3,0028*7A
464,1617296406.882834,$GPGGA,172742.50,5522.07838522,N,01025.89585820,E,4,12,0.9,22.751,M,39.413,M,1.5,0028*78
465,1617296407.1521404,$GPGGA,172742.75,5522.07835574,N,01025.89553496,E,4,12,0.9,22.722,M,39.413,M,1.8,0028*72
466,1617296407.4226205,$GPGGA,172743.00,5522.07834347,N,01025.89523226,E,4,12,0.9,22.806,M,39.413,M,2.0,0028*7E
467,1617296407.7007859,$GPGGA,172743.25,5522.07831446,N,01025.89491813,E,4,13,0.9,22.775,M,39.413,M,1.3,0028*74
468,1617296407.9973123,$GPGGA,172743.50,5522.07829834,N,01025.89461099,E,4,13,0.9,22.793,M,39.413,M,1.5,0028*7D
469,1617296408.2698557,$GPGGA,172743.95,5522.07827127,N,01025.89405208,E,4,13,0.9,22.795,M,39.413,M,0.9,0028*72
470,1617296408.5428574,$GPGGA,172744.15,5522.07825786,N,01025.89379532,E,4,13,0.9,22.852,M,39.413,M,1.1,0028*7D
471,1617296408.8145483,$GPGGA,172744.35,5522.07823906,N,01025.89356145,E,4,13,0.9,22.806,M,39.413,M,1.4,0028*72
472,1617296409.0832298,$GPGGA,172744.80,5522.07821495,N,01025.89299919,E,4,13,0.9,22.827,M,39.413,M,1.8,0028*75
473,1617296409.352247,$GPGGA,172745.00,5522.07821090,N,01025.89275532,E,4,13,0.9,22.768,M,39.413,M,2.0,0028*75
474,1617296409.6227744,$GPGGA,172745.20,5522.07820190,N,01025.89250216,E,4,13,0.9,22.800,M,39.413,M,2.2,0028*72
475,1617296409.8919861,$GPGGA,172745.45,5522.07819052,N,01025.89219596,E,4,16,0.8,22.768,M,39.413,M,1.5,0028*77
476,1617296410.161609,$GPGGA,172745.70,5522.07818541,N,01025.89186660,E,4,16,0.8,22.815,M,39.413,M,1.7,0028*7F
477,1617296410.4318707,$GPGGA,172746.15,5522.07817474,N,01025.89128938,E,4,17,0.7,22.774,M,39.413,M,1.1,0028*71
478,1617296410.7035162,$GPGGA,172746.35,5522.07817796,N,01025.89103308,E,4,17,0.7,22.785,M,39.413,M,1.4,0028*77
479,1617296410.9739807,$GPGGA,172746.60,5522.07818094,N,01025.89071846,E,4,17,0.7,22.797,M,39.413,M,1.6,0028*79
480,1617296411.2459276,$GPGGA,172746.80,5522.07817930,N,01025.89046739,E,4,16,0.7,22.790,M,39.413,M,0.8,0028*75
481,1617296411.5167465,$GPGGA,172747.25,5522.07818583,N,01025.88991779,E,4,16,0.7,22.758,M,39.413,M,1.3,0028*78
482,1617296411.7855325,$GPGGA,172747.45,5522.07818760,N,01025.88966756,E,4,16,0.7,22.785,M,39.413,M,1.5,0028*72
483,1617296412.056011,$GPGGA,172747.70,5522.07817920,N,01025.88937312,E,4,16,0.7,22.707,M,39.413,M,1.7,0028*79
484,1617296412.325579,$GPGGA,172747.95,5522.07816254,N,01025.88905855,E,4,16,0.7,22.763,M,39.413,M,2.0,0028*74
485,1617296412.5949988,$GPGGA,172748.20,5522.07814429,N,01025.88877048,E,4,16,0.7,22.790,M,39.413,M,1.2,0028*76
486,1617296412.8703914,$GPGGA,172748.45,5522.07811378,N,01025.88846360,E,4,16,0.7,22.767,M,39.413,M,1.5,0028*77
487,1617296413.31685,$GPGGA,172748.95,5522.07805235,N,01025.88792123,E,4,14,0.8,22.754,M,39.413,M,0.9,0028*74
488,1617296413.5894873,$GPGGA,172749.20,5522.07799148,N,01025.88763637,E,4,14,0.8,22.799,M,39.413,M,1.2,0028*7F
489,1617296413.8620317,$GPGGA,172749.40,5522.07793297,N,01025.88743490,E,4,14,0.8,22.787,M,39.413,M,1.4,0028*76
490,1617296414.1351688,$GPGGA,172749.85,5522.07775362,N,01025.88704965,E,4,14,0.8,22.813,M,39.413,M,1.9,0028*77
491,1617296414.4084992,$GPGGA,172750.05,5522.07765523,N,01025.88689948,E,4,14,0.8,22.713,M,39.413,M,2.0,0028*7B
492,1617296414.6830342,$GPGGA,172750.30,5522.07749779,N,01025.88673337,E,4,14,0.8,22.765,M,39.413,M,1.3,0028*78
493,1617296414.9533448,$GPGGA,172750.50,5522.07739454,N,01025.88661709,E,4,14,0.8,22.775,M,39.413,M,1.5,0028*78
494,1617296415.2235923,$GPGGA,172750.75,5522.07724907,N,01025.88645504,E,4,14,0.8,22.774,M,39.413,M,1.8,0028*7D
495,1617296415.4941638,$GPGGA,172751.00,5522.07709909,N,01025.88629977,E,4,13,0.8,22.807,M,39.413,M,1.0,0028*79
496,1617296415.764713,$GPGGA,172751.45,5522.07682803,N,01025.88604586,E,4,12,0.8,22.828,M,39.413,M,1.5,0028*75
497,1617296416.0342994,$GPGGA,172751.70,5522.07670038,N,01025.88585508,E,4,11,0.9,22.696,M,39.413,M,1.7,0028*79
498,1617296416.303361,$GPGGA,172751.90,5522.07659146,N,01025.88570374,E,4,10,1.0,22.835,M,39.413,M,0.9,0028*72
499,1617296416.5721443,$GPGGA,172752.15,5522.07645258,N,01025.88550981,E,4,10,1.0,22.854,M,39.413,M,1.1,0028*71
500,1617296416.839861,$GPGGA,172752.40,5522.07631432,N,01025.88532362,E,4,10,1.0,22.805,M,39.413,M,1.4,0028*7A
501,1617296417.1084306,$GPGGA,172752.65,5522.07616775,N,01025.88510422,E,4,10,1.0,22.963,M,39.413,M,1.6,0028*78
502,1617296417.3771756,$GPGGA,172753.10,5522.07590843,N,01025.88475251,E,4,10,1.0,22.808,M,39.413,M,1.1,0028*77
503,1617296417.6468995,$GPGGA,172753.30,5522.07579935,N,01025.88460738,E,4,10,1.0,22.819,M,39.413,M,1.3,0028*7E
504,1617296417.9268339,$GPGGA,172753.50,5522.07569336,N,01025.88444558,E,4,10,1.0,22.842,M,39.413,M,1.5,0028*7A
505,1617296418.2005086,$GPGGA,172753.75,5522.07554825,N,01025.88425967,E,4,10,1.0,22.772,M,39.413,M,1.8,0028*7C
506,1617296418.4748046,$GPGGA,172754.20,5522.07530532,N,01025.88392025,E,4,09,1.1,22.910,M,39.413,M,1.2,0028*7F
507,1617296418.7425401,$GPGGA,172754.45,5522.07516172,N,01025.88374784,E,4,09,1.1,22.918,M,39.413,M,1.5,0028*73
508,1617296419.0124197,$GPGGA,172754.65,5522.07503580,N,01025.88360684,E,4,09,1.1,22.910,M,39.413,M,1.6,0028*73
509,1617296419.2808418,$GPGGA,172754.85,5522.07491770,N,01025.88348193,E,4,09,1.1,22.912,M,39.413,M,1.9,0028*7C
510,1617296419.54821,$GPGGA,172755.10,5522.07475595,N,01025.88333592,E,4,09,1.1,22.875,M,39.413,M,1.1,0028*73
511,1617296419.8400447,$GPGGA,172755.50,5522.07450817,N,01025.88309156,E,4,09,1.1,22.856,M,39.413,M,1.5,0028*77
512,1617296420.112027,$GPGGA,172755.75,5522.07434399,N,01025.88294061,E,4,09,1.1,22.828,M,39.413,M,1.8,0028*7B
513,1617296420.3809502,$GPGGA,172756.00,5522.07417431,N,01025.88281371,E,4,09,1.1,22.847,M,39.413,M,2.0,0028*7A
514,1617296420.6493087,$GPGGA,172756.25,5522.07402445,N,01025.88266831,E,4,10,1.0,22.819,M,39.413,M,1.3,0028*7E
515,1617296420.9182754,$GPGGA,172756.45,5522.07388354,N,01025.88253682,E,4,10,1.0,22.779,M,39.413,M,1.5,0028*75
516,1617296421.1867566,$GPGGA,172756.70,5522.07371745,N,01025.88240935,E,4,10,1.0,22.833,M,39.413,M,1.7,0028*73
517,1617296421.4544518,$GPGGA,172756.95,5522.07355589,N,01025.88228027,E,4,10,1.0,22.794,M,39.413,M,2.0,0028*7E
518,1617296421.722958,$GPGGA,172757.40,5522.07324604,N,01025.88200696,E,4,13,0.8,22.812,M,39.413,M,1.4,0028*7D
519,1617296421.9912713,$GPGGA,172757.65,5522.07308276,N,01025.88185103,E,4,13,0.8,22.854,M,39.413,M,1.6,0028*70
520,1617296422.2604716,$GPGGA,172757.85,5522.07295266,N,01025.88173556,E,4,13,0.8,22.841,M,39.413,M,1.9,0028*7C
521,1617296422.5286164,$GPGGA,172758.10,5522.07279150,N,01025.88158049,E,4,14,0.7,22.834,M,39.413,M,1.1,0028*7B
522,1617296422.7965786,$GPGGA,172758.50,5522.07253711,N,01025.88133338,E,4,14,0.7,22.855,M,39.413,M,1.5,0028*7F
523,1617296423.0702238,$GPGGA,172758.75,5522.07238883,N,01025.88115824,E,4,14,0.8,22.840,M,39.413,M,0.8,0028*74
524,1617296423.340598,$GPGGA,172758.95,5522.07225845,N,01025.88103215,E,4,14,0.8,22.835,M,39.413,M,0.9,0028*70
525,1617296423.6100924,$GPGGA,172759.15,5522.07213908,N,01025.88089369,E,4,14,0.8,22.815,M,39.413,M,1.1,0028*76
526,1617296423.8791025,$GPGGA,172759.60,5522.07186879,N,01025.88055006,E,4,14,0.8,22.841,M,39.413,M,1.6,0028*71
527,1617296424.1485038,$GPGGA,172759.85,5522.07172339,N,01025.88034314,E,4,14,0.8,22.872,M,39.413,M,1.9,0028*76
528,1617296424.4179308,$GPGGA,172800.10,5522.07157124,N,01025.88016839,E,4,13,0.9,22.835,M,39.413,M,1.1,0028*79
529,1617296424.690975,$GPGGA,172800.30,5522.07145261,N,01025.88001960,E,4,13,0.9,22.806,M,39.413,M,1.3,0028*73
530,1617296424.9596045,$GPGGA,172800.50,5522.07132708,N,01025.87986862,E,4,13,0.9,22.838,M,39.413,M,1.5,0028*7E
531,1617296425.2275858,$GPGGA,172800.75,5522.07118493,N,01025.87968939,E,4,13,0.9,22.805,M,39.413,M,1.8,0028*7C
532,1617296425.4954915,$GPGGA,172801.00,5522.07103804,N,01025.87949488,E,4,13,0.9,22.849,M,39.413,M,1.0,0028*73
533,1617296425.7650206,$GPGGA,172801.45,5522.07077648,N,01025.87916267,E,4,13,0.9,22.869,M,39.413,M,1.5,0028*7C
534,1617296426.0337896,$GPGGA,172801.70,5522.07062614,N,01025.87900080,E,4,13,0.9,22.875,M,39.413,M,1.7,0028*74
535,1617296426.3031561,$GPGGA,172801.90,5522.07051515,N,01025.87884781,E,4,13,0.9,22.850,M,39.413,M,1.9,0028*7A
536,1617296426.5730803,$GPGGA,172802.15,5522.07038430,N,01025.87865046,E,4,13,0.9,22.902,M,39.413,M,1.1,0028*70
